City_ID,City,Country,Max Temp,Current Description,Lat,Lng,Hotel Name
0,Chicama,PE,59.54,Clouds,-7.8447,-79.1469,Balihai Bungalows
1,Bredasdorp,ZA,74.28,Clouds,-34.5322,20.0403,Bredasdorp Country Manor
3,Busselton,AU,50.04,Clouds,-33.65,115.3333,Observatory Guest House
6,Rikitea,PF,74.84,Clouds,-23.1203,-134.9692,People ThankYou
10,Bethel,US,61.5,Rain,41.3712,-73.414,Courtyard by Marriott Danbury
11,Vaini,TO,71.76,Clouds,-21.2,-175.2,Keleti Beach Resort
12,Pisco,PE,65.01,Mist,-13.7,-76.2167,Hotel San Isidro Oficial
14,Bambous Virieux,MU,75.45,Clouds,-20.3428,57.7575,Casa Tia Villa
15,Biak,ID,76.6,Clouds,-0.9131,122.8766,Penginapan Kim
16,Santa Ana,US,67.77,Haze,33.7456,-117.8678,Santa Ana Travel Inn
17,Mar Del Plata,AR,78.82,Clear,-38.0023,-57.5575,Gran Hotel Mar del Plata
18,Makakilo City,US,71.29,Clear,21.3469,-158.0858,Marriott's Ko Olina Beach Club
19,Mataura,NZ,51.33,Clouds,-46.1927,168.8643,Ellie's Villa
20,Kieta,PG,79.11,Rain,-6.2167,155.6333,Uruna Bay Retreat
22,Geraldton,AU,61.21,Clear,-28.7667,114.6,Broadwater Mariner Resort
24,Faya,SA,70.32,Clouds,18.3851,42.4509,املاك خالد الشعشوع
25,Albany,US,55.22,Clouds,42.6001,-73.9662,
26,Russell,US,57.06,Clouds,32.3502,-85.1999,Macs
27,Cape Town,ZA,72.1,Clear,-33.9258,18.4232,Southern Sun Waterfront Cape Town
28,Avarua,CK,71.65,Clouds,-21.2078,-159.775,Paradise Inn
29,Kapaa,US,71.58,Clear,22.0752,-159.319,Sheraton Kauai Coconut Beach Resort
33,Poum,NC,74.53,Clear,-20.2333,164.0167,Gîte kajeon
34,Lebu,CL,54.81,Clouds,-37.6167,-73.65,Hostal Las Lilas
37,Souillac,MU,75.58,Clouds,-20.5167,57.5167,Shanti Maurice Resort & Spa
38,Byron Bay,AU,68.88,Clouds,-28.65,153.6167,Backpackers Inn on the Beach
39,Saint-Philippe,RE,74.79,Clouds,-21.3585,55.7679,"Chambres d'hôte ""La Trinité"""
45,Predejane,RS,58.71,Clear,42.8294,22.1311,Prenoćište Konak Iris
46,Ponta Delgada,PT,76.5,Clouds,37.7333,-25.6667,Vila Nova Hotel
53,Kawalu,ID,73.44,Clouds,-7.3817,108.2082,KOSAN UNGU UNSIK
57,Alofi,NU,73.29,Clouds,-19.0595,-169.9187,Taloa Heights
58,Tezu,IN,67.17,Clear,27.9167,96.1667,Circuit House
60,Castro,BR,73.36,Clouds,-24.7911,-50.0119,CHACARA BAILLY
61,Port Alfred,ZA,68.7,Clear,-33.5906,26.891,The Halyards Hotel
64,Penzance,GB,57.27,Clouds,50.1186,-5.5371,Artist Residence Penzance
65,Richards Bay,ZA,66.99,Rain,-28.783,32.0377,BON Hotel Waterfront Richards Bay
66,New Norfolk,AU,50.72,Clouds,-42.7826,147.0587,The Shingles Riverside Cottages
67,Saint George,US,65.53,Clear,37.1041,-113.5841,Best Western Plus Abbey Inn
68,Georgetown,MY,78.73,Clouds,5.4112,100.3354,Cititel Penang
69,Fortuna,US,58.35,Clouds,40.5982,-124.1573,Super 8 by Wyndham Fortuna
71,Mangrol,IN,79.92,Clouds,21.1167,70.1167,Hotel The Royal Honours
72,Punta Arenas,CL,50.11,Clear,-53.15,-70.9167,Hotel Dreams Del Estrecho
73,Tautira,PF,75.22,Rain,-17.7333,-149.15,Pension Oaoa
75,Saldanha,ZA,65.1,Clouds,-33.0117,17.9442,Blue Bay Lodge
77,Hermanus,ZA,74.8,Clouds,-34.4187,19.2345,Misty Waves Boutique Hotel
78,Kaitangata,NZ,51.15,Clouds,-46.2817,169.8464,Kaitangata Motor Camp
79,Parole,US,62.22,Clouds,38.9796,-76.5305,DoubleTree by Hilton Hotel Annapolis
82,Atambua,ID,77.97,Clouds,-9.1061,124.8925,Pastori 1 Jemaat Polycarpus
83,Jamestown,US,50.29,Clouds,42.097,-79.2353,Hampton Inn & Suites Jamestown
84,Quatre Cocos,MU,75.31,Clouds,-20.2078,57.7625,Sunrise Attitude Hotel
85,Sept-Iles,CA,50.43,Clouds,50.2001,-66.3821,Comfort Inn
87,Hambantota,LK,79.93,Clouds,6.1241,81.1185,Bungalow 63
88,Mahebourg,MU,75.49,Clouds,-20.4081,57.7,Shandrani Beachcomber Resort & Spa
90,Chuy,UY,72.73,Clouds,-33.6971,-53.4616,Nuevo Hotel Plaza
91,Hobart,AU,51.06,Clouds,-42.8794,147.3294,Mantra on Collins Hobart
92,Kindu,CD,79.52,Rain,-2.95,25.95,Résidence Okanda
94,Bandarbeyla,SO,79.2,Rain,9.4942,50.8122,JABIR HOTEL
98,Santa Isabel,BR,78.66,Clouds,-23.3156,-46.2214,Chácara Sombra do Altíssimo
99,Guerrero Negro,MX,66.13,Clear,27.9769,-114.0611,"Casa Laguna, Bed & Breakfast"
100,Whitianga,NZ,62.02,Rain,-36.8333,175.7,Beachside Resort Whitianga
101,Cap Malheureux,MU,75.69,Clear,-19.9842,57.6142,Pereybere Hotel & Spa
103,Esperance,AU,56.98,Clear,-33.8667,121.9,Hospitality Esperance
104,Cabo San Lucas,MX,79.52,Clouds,22.8909,-109.9124,Hotel Tesoro Los Cabos
105,Faanui,PF,77.83,Rain,-16.4833,-151.75,Bora-Bora Pearl Beach Resort & Spa
108,Atuona,PF,77.36,Clouds,-9.8,-139.0333,Villa Enata
109,Matara,LK,77.74,Clouds,5.9485,80.5353,Amaloh Boutique Resort
110,Yabrud,SY,65.86,Clouds,33.9674,36.6574,المنزل
113,Port Lincoln,AU,52.27,Clear,-34.7333,135.8667,Port Lincoln Hotel
116,Manthani,IN,76.8,Clouds,18.65,79.6667,Arepelli kumar muncipal vice chairman
117,Bindi,SL,71.73,Clouds,9.9167,-11.45,
119,Bluff,NZ,53.87,Clouds,-46.6,168.3333,Bluff Homestead - Guesthouse & Campervan Park
120,Abha,SA,70.05,Clear,18.2164,42.5053,Abha Hotel
123,Arraial Do Cabo,BR,75.06,Clouds,-22.9661,-42.0278,Pousada Porto Praia
124,Sao Joao Da Barra,BR,77.09,Clouds,-21.6403,-41.0511,Pousada Porto De Canoas
128,Sistranda,NO,52.9,Clouds,63.7256,8.834,Hotell Frøya
132,Santa Cruz De La Palma,ES,75.34,Ash,28.6835,-17.7642,H10 Taburiente Playa
134,Dong Hoi,VN,76.37,Clouds,17.4833,106.6,Nam Long Hotel
138,Ilave,PE,58.33,Clouds,-16.0833,-69.6667,Hostal Magestad
143,Puerto Ayora,EC,75.16,Clouds,-0.7393,-90.3518,Finch Bay Galapagos Hotel
144,Mahuva,IN,79.52,Clouds,21.0914,71.7622,Hotel Blue Diamond.
146,Barlinek,PL,55.9,Clouds,52.9946,15.2186,Hotel Barlinek
148,Ancud,CL,54.93,Clear,-41.8697,-73.8203,Hotel Arena Gruesa
150,East London,ZA,67.14,Clouds,-33.0153,27.9116,Tu Casa
151,Bintulu,MY,77.41,Clouds,3.1667,113.0333,900 Boutique INN
153,Ahuimanu,US,72.46,Clear,21.4447,-157.8378,Paradise Bay Resort
154,Port Macquarie,AU,58.89,Rain,-31.4333,152.9167,Rydges Port Macquarie
156,Ahipara,NZ,62.47,Rain,-35.1667,173.1667,Ahipara Holiday Park
159,Victoria,HK,75.25,Rain,22.2855,114.1577,Mini Hotel Central
160,Sukhumi,GE,56.48,Clouds,43.0033,41.0153,Ritsa Hotel
163,Aberdeen,GB,52.48,Clouds,57.1437,-2.0981,Premier Inn Aberdeen City Centre hotel
164,Port Elizabeth,ZA,69.1,Clear,-33.918,25.5701,39 On Nile Guest House
168,Osterburg,DE,56.5,Clouds,52.7833,11.7667,Altmarkhotel
169,Carnarvon,AU,69.87,Clear,-24.8667,113.6333,Hospitality Carnarvon
173,Banda Aceh,ID,79.0,Clouds,5.5577,95.3222,Sulthan Hotel International
174,Vao,NC,70.54,Clouds,-22.6667,167.4833,Hotel Kou-Bugny
175,Shache,CN,53.8,Clear,38.4167,77.2406,Delong Hotel
176,Estacion Coahuila,MX,68.97,Clear,32.1939,-115.0017,carroceria y pintura Kikones
179,Rokytne,UA,53.02,Clear,51.2796,27.214,Затишок
181,Noumea,NC,64.38,Clear,-22.2763,166.4572,Hôtel Le Lagon
182,Dondo,MZ,78.31,Clear,-19.6094,34.7431,Arco Iris
185,Kharan,PK,74.03,Clear,28.5833,65.4167,Dil Aram Bangla
186,Gorontalo,ID,75.87,Clouds,0.5412,123.0595,Maqna Hotel by Prasanthi
187,La Union,PE,76.26,Clouds,-5.4,-80.75,Los Portales
189,Ocampo,MX,58.37,Clear,21.65,-101.5,Casa de ratas
190,Lompoc,US,55.31,Mist,34.6391,-120.4579,"Holiday Inn Express Lompoc, an IHG Hotel"
191,Los Llanos De Aridane,ES,71.35,Ash,28.6585,-17.9182,Valle Aridane
193,Najran,SA,77.65,Clear,17.4924,44.1277,محمد هادي ال فطيح
196,Rocha,UY,72.93,Clouds,-34.4833,-54.3333,Beleza Pura B&B
197,Necochea,AR,61.03,Clouds,-38.5473,-58.7368,dyd -mar Hotel
198,Cervo,ES,66.2,Clouds,43.6702,-7.4101,Hotel Spa Galatea
199,Lagoa,PT,70.03,Clouds,39.05,-27.9833,Casa Das Faias
200,Tsogni,GA,79.05,Rain,-2.7942,10.0988,
205,Katobu,ID,74.97,Clouds,-4.9408,122.5276,La Ode Husein
208,Barcelos,PT,66.85,Clouds,41.5388,-8.6151,Hotel Do Terço
214,Kruisfontein,ZA,66.88,Clear,-34.0033,24.7314,Oyster Bay House Rental
215,Cidreira,BR,71.49,Clouds,-30.1811,-50.2056,Hotel Castelo
217,Margate,GB,58.03,Clouds,51.3813,1.3862,Premier Inn Margate hotel
218,Fomboni,KM,78.69,Clear,-12.28,43.7425,Auberge les abou
219,Hoi An,VN,76.96,Clouds,15.8794,108.335,Belle Maison Hadana Hoi An managed by H&K Hospitality
221,Varhaug,NO,55.89,Rain,58.6147,5.6457,Jonas Bue
222,Vrnjacka Banja,RS,60.03,Clear,43.6167,20.9,Luxury Rooms Minjon
223,Grand Gaube,MU,75.6,Clear,-20.0064,57.6608,Veranda Paul et Virginie Hotel & Spa
226,Liku,ID,74.59,Rain,-0.7275,119.8922,Wahyu
227,Broome,US,53.71,Clouds,42.2506,-75.833,Chenango Valley State Park
228,Pyay,MM,75.88,Clouds,18.8167,95.2167,Shwe Pyi Thar
233,Rio Gallegos,AR,57.25,Clear,-51.6226,-69.2181,Hotel Santa Cruz
234,Camana,PE,68.58,Clouds,-16.6228,-72.7111,Hostal Morales
236,Castle Rock,US,59.25,Clear,39.3722,-104.8561,Best Western Plus Castle Rock
239,Kedainiai,LT,54.14,Clear,55.2883,23.9747,Gray's house
240,Ribeira Grande,PT,72.0,Clouds,38.5167,-28.7,Quinta da Meia Eira
241,Haapiti,PF,74.93,Clouds,-17.5667,-149.8667,Linareva Moorea Beach Resort
242,Lerwick,GB,51.8,Clouds,60.1545,-1.1494,The Lerwick Hotel
247,Talara,PE,75.96,Clear,-4.5772,-81.2719,Hostal Oro Negro
248,Broken Hill,AU,55.27,Clouds,-31.95,141.4333,Royal Exchange Hotel
249,San Quintin,MX,64.36,Clear,30.4833,-115.95,Don Eddie's Sport Fishing Center
250,Kahului,US,71.83,Clear,20.8947,-156.47,Maui Seaside Hotel
252,Menongue,AO,70.36,Rain,-14.6585,17.691,Ritz Lauca
253,Gafanha Da Encarnacao,PT,68.05,Rain,40.6181,-8.733,Hotel Barra
258,Ciudad Del Maiz,MX,63.48,Clear,22.4,-99.6,Hotel Casona del General
259,Jining,CN,61.21,Rain,35.405,116.5814,Yunhe Star Hotel
260,Yulara,AU,58.84,Clouds,-25.2406,130.9889,Desert Gardens Hotel - Ayers Rock Resort
261,Vila Velha,BR,76.95,Clouds,-20.3297,-40.2925,Quality Suites Vila Velha
262,Montmagny,FR,58.71,Clouds,48.9734,2.3469,Eurohotel Paris Nord
263,Nidzica,PL,54.99,Clear,53.3605,20.4275,Zajazd Leśny Noclegi Wesela Przyjęcia Grupy Zorganizowane Komunie Imprezy
266,Damietta,EG,75.07,Clear,31.4165,31.8133,SULIMAN INN
268,Sorong,ID,79.83,Rain,-0.8833,131.25,waigo splash hotel
269,Gushi,CN,61.36,Clouds,34.6425,109.5843,
270,Cap-Aux-Meules,CA,53.65,Clouds,47.3821,-61.8597,Auberge Madeli
272,Korla,CN,54.48,Clouds,41.7597,86.1469,Gulisitan Hotel
273,Hun,LY,79.92,Clouds,29.1268,15.9477,Alrwasi Hotel
274,Tripoli,LY,73.33,Clouds,32.8752,13.1875,Hotel Al-Safwa
276,Ladwa,IN,69.76,Clear,29.9944,77.0444,Tari Jatt
279,Hartselle,US,55.65,Clouds,34.4434,-86.9353,Country Cottage-Hartselle
282,Rawson,AR,56.57,Clear,-43.3002,-65.1023,Hosteria Sampedro
283,Brae,GB,51.71,Clouds,60.3964,-1.353,Busta House Hotel
285,Lengshuitan,CN,64.6,Clouds,26.4111,111.5956,Jialong Hotel
286,Marzuq,YE,78.42,Clouds,14.4,46.4667,
287,Susner,IN,69.13,Clear,23.95,76.0833,BaBji Electronics
289,Madisonville,US,54.03,Clouds,37.3281,-87.4989,Days Inn by Wyndham Madisonville
292,Batobato,PH,78.78,Clouds,6.8252,126.0846,Huyaanan Hotel
293,Kendari,ID,75.27,Clouds,-3.945,122.4989,Hotel Wixel
295,Archidona,ES,71.42,Clouds,37.0965,-4.3887,Hotel Escua
296,Lysa Hora,UA,51.76,Clear,48.1706,31.1099,
298,Alyangula,AU,76.87,Clouds,-13.8483,136.4192,Groote Eylandt Lodge
301,Calbuco,CL,56.41,Clear,-41.768,-73.1273,Hotel Colonial
302,Birin,NP,53.78,Clouds,26.8865,88.0718,Sangam hotel and lodge
303,Teluknaga,ID,79.18,Haze,-6.0989,106.6381,Bale Ocasa hotel
305,Lexington,US,54.99,Clouds,37.9887,-84.4777,DoubleTree Suites by Hilton Hotel Lexington
306,Surt,LY,75.87,Clear,31.2089,16.5887,الهادي ابوشعاله سرت
307,Loa Janan,ID,73.56,Clouds,-0.583,117.095,Bangsal Pak Tikno
308,Constitucion,CL,64.71,Clouds,-35.3333,-72.4167,Hotel Boutique Las Azucenas
309,Torbay,CA,51.76,Clouds,47.6666,-52.7314,Gallows Cove
311,Havelock,US,63.99,Clear,34.8791,-76.9013,Sherwood Motel
312,Tokuyama,JP,62.91,Clouds,34.05,131.8167,Toyoko INN Tokuyama eki Shinkansenguchi
315,Gamba,GA,79.2,Rain,-2.65,10.0,
316,Viedma,AR,59.45,Clouds,-40.8135,-62.9967,Hotel Cristal
319,Starup,DK,55.83,Rain,55.241,9.535,Hotel Norden
320,Sibolga,ID,77.59,Rain,1.7427,98.7792,Hotel Syariah CN Darussalam
323,Jaque,PA,76.48,Rain,7.5175,-78.1703,Aventuras Jaque S.A
327,Tongchuan,CN,56.61,Clouds,35.0806,109.0897,Tongchuan Hotel
329,Mosquera,CO,64.49,Clouds,4.7059,-74.2302,Hotel SJ
332,Choszczno,PL,55.99,Clouds,53.169,15.4205,Karczma Zbójnicka
334,Jackson,US,54.64,Clouds,42.4165,-122.8345,Agate Village Apartments
335,Valparaiso,CL,64.63,Haze,-33.0393,-71.6273,Hotel Ultramar
336,Chervona Sloboda,UA,51.21,Clear,49.3789,32.1464,Sportohota
337,Luan,CH,50.04,Rain,46.3592,6.9759,Hotel Appartement Castel Club Leysin Parc
338,Bonthe,SL,76.71,Clouds,7.5264,-12.505,Bonthe Holiday Village
340,Pacific Grove,US,59.02,Mist,36.6177,-121.9166,Lovers Point Inn
341,Meulaboh,ID,77.59,Clouds,4.1363,96.1285,Kost Pria
342,San Patricio,US,70.52,Clear,28.017,-97.5169,"Motel 6 Sinton, TX"
344,Sohbatpur,PK,78.26,Clear,28.5202,68.5434,Allu Hotel
345,Balkanabat,TM,59.76,Clouds,39.5108,54.3671,Nebitchi Hotel
346,Avera,US,62.71,Clouds,33.194,-82.5271,
347,Sainte-Suzanne,RE,75.42,Clear,-20.9061,55.6089,Gites Ango
348,Pathanamthitta,IN,75.07,Rain,9.2667,76.7833,Vijaya Residency
349,Chai Nat,TH,76.59,Rain,15.1167,100.1,Thai Boxing ROSEINN RESORT
350,Gondanglegi,ID,77.49,Clouds,-7.7479,112.0132,pondok pesantren mamba'ul 'ulum selo rejo
355,Pasighat,IN,67.68,Clear,28.0667,95.3333,Siang Guest House
356,Yining,CN,60.98,Clouds,29.0361,114.5636,Xiushui Hotel
357,Shingu,JP,61.21,Clouds,33.7333,135.9833,Shingu UI Hotel
359,Honiara,SB,78.22,Clouds,-9.4333,159.95,Heritage Park Hotel
360,Nambucca Heads,AU,64.17,Clouds,-30.65,153.0,Marcel Towers Holiday Apartments
364,Coihaique,CL,52.41,Clouds,-45.5752,-72.0662,Diego De Almagro Coyhaique
365,Marihatag,PH,77.74,Clouds,8.7936,126.2969,Mariner's Place & Resort
367,Bonavista,CA,51.12,Clouds,48.6499,-53.1147,Abbott's Bed & Breakfast
368,Coquimbo,CL,56.93,Clouds,-29.9533,-71.3436,Punto de encuentro
370,Tabuk,PH,71.91,Clouds,17.4189,121.4443,Golden Berries Hotel and Convention
372,Imbituba,BR,69.69,Rain,-28.24,-48.6703,Praia Hotel Imbituba
375,San Ignacio,BZ,73.54,Clear,17.1561,-89.0714,Rainforest Haven Inn
376,Ewa Beach,US,72.7,Clear,21.3156,-158.0072,Uncle Junior Robert
377,Gat,IL,78.4,Clouds,31.61,34.7642,OlusHome
384,Juba,SS,76.51,Rain,4.8517,31.5825,ROYAL PALACE HOTEL - JUBA
387,Metro,ID,77.76,Clouds,-5.1131,105.3067,OYO 3177 Wisma Lintang
388,Wilmington,US,64.94,Clear,34.2257,-77.9447,"Hotel Ballast Wilmington, Tapestry Collection by Hilton"
389,Varkkallai,IN,78.58,Clouds,8.7341,76.7067,SPOT ON 72723 Pathanjali Ayurveda Yoga Centre( Dreams Beach Resort)
390,Nosy Varika,MG,72.37,Clouds,-20.5833,48.5333,Hotel Volazara
391,Todos Santos,MX,79.02,Clear,23.45,-110.2167,Hotel California Todos Santos
392,Airai,TL,63.68,Clouds,-8.9266,125.4092,Juvinal Martin
395,Port Hedland,AU,71.65,Clear,-20.3167,118.5667,The Esplanade Hotel
397,Bubaque,GW,74.7,Rain,11.2833,-15.8333,"Casa Dora, Bubaque"
400,Zempoala,MX,79.92,Clouds,19.45,-96.4167,Panteon Cempoala
404,Wonopringgo,ID,78.94,Clouds,-6.9833,109.6167,Bu surti
405,Kloulklubed,PW,79.3,Rain,7.0419,134.2556,Storyboard Beach Resort
406,San Joaquin,US,60.13,Clear,37.9333,-121.3011,University Plaza Waterfront Hotel
409,Taltal,CL,67.08,Clouds,-25.4,-70.4833,Residencial Karime
411,Hasaki,JP,55.8,Clouds,35.7333,140.8333,Hotel Sunrise Choshi
416,Atherton,GB,55.54,Clear,53.5237,-2.4935,The Lion Inn
422,Kokstad,ZA,60.73,Clouds,-30.5472,29.4241,Majestic Bed and Breakfast
423,Elizabeth City,US,68.05,Clear,36.2946,-76.2511,Hampton Inn Elizabeth City
424,Dingle,PH,75.74,Clouds,10.9995,122.6711,SEGAYA PROPERTY
427,Nakhon Phanom,TH,73.11,Clouds,17.3333,104.4167,ป่ายางรีสอร์ท
429,Hamilton,US,55.58,Mist,39.1834,-84.5333,Six Acres Bed & Breakfast
430,Namatanai,PG,79.29,Rain,-3.6667,152.4333,Seagulls Inn Namatani
435,Ninh Binh,VN,66.56,Clouds,20.2539,105.975,Kinh Do Hotel
439,Chute-Aux-Outardes,CA,51.4,Clear,49.1168,-68.399,Camp St-Paul Gite Plein-Air
443,Hecun,CN,60.33,Clouds,36.5333,114.1111,Yijia Hotel
447,Beaumont,US,60.96,Clear,30.0861,-94.1019,Super 8 by Wyndham Beaumont
448,Morgantown,US,55.2,Clouds,39.6295,-79.9559,Morgantown Marriott at Waterfront Place
451,Jieshi,CN,71.94,Clouds,22.8134,115.8257,Yuehai Hotel
454,Ulladulla,AU,50.9,Clouds,-35.35,150.4667,Sandpiper Motel
456,Inhambane,MZ,75.18,Clouds,-23.865,35.3833,Oceano
458,Port Moresby,PG,76.42,Clouds,-9.4431,147.1797,Lamana Hotel (Port Moresby)
459,Lata,PT,68.36,Rain,40.1629,-8.3327,Casa Maquia
465,Vangaindrano,MG,70.79,Clouds,-23.35,47.6,Hotel Fanilo
466,Tura,IN,66.06,Clear,25.5198,90.2201,Hotel RIKMAN Continental
467,La Seyne-Sur-Mer,FR,58.96,Clouds,43.0982,5.8847,La Frégate
468,Isangel,VU,75.31,Clear,-19.55,169.2667,Tanna Lodge
469,Calama,CL,72.09,Clear,-22.4667,-68.9333,Diego De Almagro Calama
471,Vallenar,CL,78.93,Clear,-28.5708,-70.7581,Humacao Bed & Breakfast
474,El Chimbo,HN,68.88,Clouds,14.1333,-87.1167,Eco-Hotel Shangri-La
477,Vrangel,RU,53.78,Clouds,42.7297,133.0839,"Отель ""БАЛИ"""
480,Tacana,GT,56.3,Clouds,15.2333,-92.0833,Al Dorado
481,Bardiyah,LY,74.95,Clouds,31.7561,25.0865,بورتو بردية
483,Mareeba,AU,72.32,Clouds,-17.0,145.4333,Trinity Plains Tourist Park
485,Mahbubabad,IN,75.88,Clouds,17.6167,80.0167,Vedansh Residency
486,Ravar,IR,67.44,Clear,31.2656,56.8055,کافی نت و کامپیوترپرشین سیستم
488,Katsuura,JP,60.91,Clear,35.1333,140.3,Katsuura Hotel Mikazuki
491,Dunedin,NZ,59.81,Clear,-45.8742,170.5036,Scenic Hotel Southern Cross
493,Eureka,US,59.67,Clouds,40.8021,-124.1637,Eureka Inn Trademark By Wyndham
495,Tiarei,PF,75.22,Clouds,-17.5333,-149.3333,Le Rocher de Tahiti
498,Mildura,AU,53.56,Clear,-34.2,142.15,Mercure Hotel Mildura
499,Turkistan,KZ,51.78,Clouds,43.0,68.0,
500,Praia Da Vitoria,PT,75.45,Clouds,38.7333,-27.0667,Hotel Branco I
501,Arawa,PG,76.95,Clouds,-6.2132,155.5367,Coastline Guest House
502,Raudeberg,NO,54.19,Clouds,61.9875,5.1352,Nordre Silda.
507,Buluang,PH,75.92,Clouds,13.3068,123.3425,Enon Beach Resort
508,Agoura Hills,US,66.69,Clear,34.1364,-118.7745,Sheraton Agoura Hills Hotel
509,Port-De-Bouc,FR,60.58,Mist,43.4,4.9833,HOTEL RESIDENCE LES AIGUADES
511,Belfast,GB,52.12,Clouds,54.5833,-5.9333,Wellington Park Hotel
512,Hirara,JP,76.6,Clouds,24.8,125.2833,Hotel Atoll Emerald Miyakojima
515,Hanstholm,DK,52.75,Rain,57.1167,8.6167,Hotel Hanstholm
518,Joshimath,IN,51.22,Clear,30.5667,79.5667,Shivalik Camps & Resort
522,Preobrazheniye,RU,51.8,Clouds,42.9019,133.9064,Campsite Orlan
523,Camacha,PT,76.53,Clouds,33.0833,-16.3333,Hotel Porto Santo & Spa
524,Vila Franca Do Campo,PT,76.19,Clouds,37.7167,-25.4333,Pestana Bahia Praia
526,Christchurch,NZ,61.95,Clear,-43.5333,172.6333,The George
528,Carballo,ES,65.55,Clouds,43.213,-8.691,Pazo do Souto
529,Hualmay,PE,66.33,Clouds,-11.0964,-77.6139,Hotel Villa Kitzia Huacho
533,Langsa,ID,75.87,Clouds,4.4683,97.9683,OYO 2964 Hotel Ridho
534,Colares,PT,68.99,Fog,38.7992,-9.4469,Arribas Sintra Hotel
536,Kaka,TM,62.4,Clouds,37.3482,59.6143,
537,Neyshabur,IR,63.1,Clouds,36.2133,58.7958,Amiran Hotel
538,Matamoros,MX,66.38,Clear,25.5333,-103.25,Quinta Belem
540,Bure,ET,62.13,Clouds,10.7,37.0667,Holiday
545,Tarabha,IN,76.86,Clouds,20.7333,83.65,The spicy house
547,Peniche,PT,70.61,Rain,39.3558,-9.3811,Hotel Star inn Peniche
548,Sambava,MG,76.28,Clouds,-14.2667,50.1667,Melrose
550,Martapura,ID,75.29,Clouds,-3.4167,114.85,Montana Hotel Syariah
555,Sobreira,PT,61.59,Clouds,41.5237,-7.8023,Quinta de Santo Aleixo
559,Xingyi,CN,57.0,Clouds,24.1877,102.817,
561,Ballina,AU,67.78,Clouds,-28.8667,153.5667,Ramada Hotel & Suites by Wyndham Ballina Byron
566,Karratha,AU,73.99,Clear,-20.7377,116.8463,ibis Styles Karratha
574,Dawei,MM,77.5,Clouds,14.0833,98.2,Hotel Dawei
575,Chengde,CN,50.49,Clouds,40.9725,117.9361,Super 8 Hotel
578,East Palo Alto,US,60.91,Clouds,37.4688,-122.1411,Four Seasons Hotel Silicon Valley at East Palo Alto
579,Pahrump,US,67.17,Clear,36.2083,-115.9839,Best Western Pahrump Oasis
580,Consett,GB,50.97,Clouds,54.854,-1.8316,Derwent Manor Boutique Hotel
590,Kimbe,PG,76.26,Clouds,-5.5502,150.1429,Kimbe Bay Hotel
591,Biloela,AU,75.69,Clouds,-24.4167,150.5,Biloela Silo Motor Inn
592,Kalaleh,IR,60.4,Clouds,37.3807,55.4916,عطر و ادکلن پارسیس
593,Naze,JP,68.04,Clear,28.3667,129.4833,オーベルジュ・アガルイ
596,Beloha,MG,69.26,Clouds,-25.1667,45.05,
597,Saraland,US,63.3,Clouds,30.8207,-88.0706,Microtel Inn & Suites by Wyndham Saraland/North Mobile
600,North Bend,US,52.07,Clouds,43.4065,-124.2243,Red Lion Hotel Coos Bay
604,Wajima,JP,60.91,Clouds,37.4,136.9,Wajiima Onsen Yashio
605,Luganville,VU,78.57,Clear,-15.5333,167.1667,The Espiritu Hotel
606,Naron,ES,66.69,Clouds,43.5167,-8.1528,Marcial
607,Sechura,PE,73.11,Clouds,-5.5569,-80.8222,Hospedaje Costa Bella
612,Portland,US,52.38,Clear,45.5234,-122.6762,Embassy Suites by Hilton Portland Downtown
616,Seddon,AU,52.72,Clear,-37.8068,144.8916,Footscray Motor Inn
619,Vanimo,PG,79.3,Clouds,-2.6741,141.3028,Vahmoneh Lodge Vanimo
620,Mayo,US,62.58,Clouds,38.8876,-76.5119,Resorts Resource Group International
623,Plettenberg Bay,ZA,65.71,Clear,-34.0527,23.3716,Thanda Vista B&B
625,Griffith,US,56.39,Clouds,41.5284,-87.4237,"Motel 6 Hammond, IN - Chicago Area"
626,Goroka,PG,59.36,Clouds,-6.0834,145.3873,Bird of Paradise Hotel & Apartments
628,Tomatlan,MX,78.6,Clear,19.9333,-105.25,El Salvial
629,Hervey Bay,AU,77.04,Clouds,-25.2986,152.8535,Shelly Bay Resort
630,Turia,RO,55.09,Clear,46.0333,26.05,Pensiunea Lăcrămioara
631,Kashan,IR,69.85,Clouds,33.9831,51.4364,Manouchehri Traditional House
632,Shintomi,JP,60.55,Clouds,32.0785,131.4723,ホテルスイート
641,Malaryta,BY,55.92,Clouds,51.7905,24.074,охотбаза Орехово
646,Netarhat,IN,57.42,Clouds,23.4833,84.2667,Hotel Verma
647,Omboue,GA,78.46,Rain,-1.5746,9.2618,Hotel Olako
649,San Carlos,VE,75.2,Clouds,9.6612,-68.5827,Hotel Paternopoli
653,Sarvar,HU,57.06,Clear,47.2539,16.9352,Park Inn by Radisson Sárvár Resort & Spa
654,Nanpiao,CN,52.43,Clouds,41.0982,120.7479,Xinxing Hotel
656,Tsiroanomandidy,MG,79.95,Clouds,-18.7667,46.0333,Hotel du Bongolave
657,Monterey,US,52.0,Clear,36.2505,-121.2516,
658,Mayumba,GA,79.59,Rain,-3.432,10.6554,LIKWALE LODGE
659,Comodoro Rivadavia,AR,51.66,Clouds,-45.8667,-67.5,Austral Hotel
662,Mazatlan,MX,78.91,Clear,23.2167,-106.4167,Hotel Playamar
664,Sidi Ali,DZ,70.56,Clouds,36.0998,0.4206,
665,Antalaha,MG,75.99,Clear,-14.9003,50.2788,Hotel Vitasoa
667,Bengkulu,ID,78.42,Rain,-3.8004,102.2655,Grage Hotel Bengkulu
668,Wattegama,LK,74.32,Clouds,6.7989,81.4808,
669,Borger,NL,56.98,Clouds,52.9233,6.7931,Roompot Bospark Lunsbergen
670,Bowen,AU,73.62,Clear,-20.0167,148.2333,Castle Motor Lodge Motel
676,Madang,PG,78.98,Clouds,-5.2246,145.7966,Comfort Inn Hotel
677,Tarsus,TR,75.58,Clouds,36.9188,34.8784,Osmanli Marco Pasha Hotel
